{
"type": "FeatureCollection",
"crs": { "type": "name", "properties": { "name": "urn:ogc:def:crs:OGC:1.3:CRS84" } },
                                                                                
"features": [
{ "type": "Feature", "properties": { "ISO2": "AG", "NAME": "Antigua and Barbuda", "LON": -61.000000, "LAT": 17.000000 }, "geometry": { "type": "Point", "coordinates": [ -61.802405850752528, 17.3365197914225 ] } },
{ "type": "Feature", "properties": { "ISO2": "DZ", "NAME": "Algeria", "LON": 2.000000, "LAT": 28.000000 }, "geometry": { "type": "Point", "coordinates": [ 2.627813023335746, 28.172110231614759 ] } },
{ "type": "Feature", "properties": { "ISO2": "AZ", "NAME": "Azerbaijan", "LON": 47.000000, "LAT": 40.000000 }, "geometry": { "type": "Point", "coordinates": [ 47.551738124367752, 40.295679905645365 ] } },
{ "type": "Feature", "properties": { "ISO2": "AL", "NAME": "Albania", "LON": 20.000000, "LAT": 41.000000 }, "geometry": { "type": "Point", "coordinates": [ 20.074366046995571, 41.132545024570284 ] } },
{ "type": "Feature", "properties": { "ISO2": "AM", "NAME": "Armenia", "LON": 44.000000, "LAT": 40.000000 }, "geometry": { "type": "Point", "coordinates": [ 44.983527700912198, 40.303842128500776 ] } },
{ "type": "Feature", "properties": { "ISO2": "AO", "NAME": "Angola", "LON": 17.000000, "LAT": -12.000000 }, "geometry": { "type": "Point", "coordinates": [ 17.522426393180197, -12.307432116035315 ] } },
{ "type": "Feature", "properties": { "ISO2": "AS", "NAME": "American Samoa", "LON": -170.000000, "LAT": -14.000000 }, "geometry": { "type": "Point", "coordinates": [ -169.882327190136976, -14.254119772856516 ] } },
{ "type": "Feature", "properties": { "ISO2": "AR", "NAME": "Argentina", "LON": -65.000000, "LAT": -35.000000 }, "geometry": { "type": "Point", "coordinates": [ -65.179766244477293, -35.411281401993449 ] } },
{ "type": "Feature", "properties": { "ISO2": "AU", "NAME": "Australia", "LON": 136.000000, "LAT": -24.000000 }, "geometry": { "type": "Point", "coordinates": [ 134.487168971975223, -25.728492152987705 ] } },
{ "type": "Feature", "properties": { "ISO2": "BH", "NAME": "Bahrain", "LON": 50.000000, "LAT": 26.000000 }, "geometry": { "type": "Point", "coordinates": [ 50.557781817811751, 25.967876491335939 ] } },
{ "type": "Feature", "properties": { "ISO2": "BB", "NAME": "Barbados", "LON": -59.000000, "LAT": 13.000000 }, "geometry": { "type": "Point", "coordinates": [ -59.534446666666632, 13.18231366666668 ] } },
{ "type": "Feature", "properties": { "ISO2": "BM", "NAME": "Bermuda", "LON": -64.000000, "LAT": 32.000000 }, "geometry": { "type": "Point", "coordinates": [ -64.771672475002404, 32.308650796923885 ] } },
{ "type": "Feature", "properties": { "ISO2": "BS", "NAME": "Bahamas", "LON": -78.000000, "LAT": 24.000000 }, "geometry": { "type": "Point", "coordinates": [ -76.840306861838769, 24.66078257982441 ] } },
{ "type": "Feature", "properties": { "ISO2": "BD", "NAME": "Bangladesh", "LON": 89.000000, "LAT": 24.000000 }, "geometry": { "type": "Point", "coordinates": [ 90.26706485341262, 23.886002448357605 ] } },
{ "type": "Feature", "properties": { "ISO2": "BZ", "NAME": "Belize", "LON": -88.000000, "LAT": 17.000000 }, "geometry": { "type": "Point", "coordinates": [ -88.706031221991609, 17.218817256602421 ] } },
{ "type": "Feature", "properties": { "ISO2": "BA", "NAME": "Bosnia and Herzegovina", "LON": 17.000000, "LAT": 44.000000 }, "geometry": { "type": "Point", "coordinates": [ 17.759852652690892, 44.139379877684007 ] } },
{ "type": "Feature", "properties": { "ISO2": "BO", "NAME": "Bolivia", "LON": -64.000000, "LAT": -16.000000 }, "geometry": { "type": "Point", "coordinates": [ -64.647297239545495, -16.729753387910883 ] } },
{ "type": "Feature", "properties": { "ISO2": "MM", "NAME": "Burma", "LON": 96.000000, "LAT": 21.000000 }, "geometry": { "type": "Point", "coordinates": [ 96.535041199135009, 21.18767124906125 ] } },
{ "type": "Feature", "properties": { "ISO2": "BJ", "NAME": "Benin", "LON": 2.000000, "LAT": 10.000000 }, "geometry": { "type": "Point", "coordinates": [ 2.33229588430201, 9.604765459282728 ] } },
{ "type": "Feature", "properties": { "ISO2": "SB", "NAME": "Solomon Islands", "LON": 160.000000, "LAT": -9.000000 }, "geometry": { "type": "Point", "coordinates": [ 159.398647217088751, -8.925746784138733 ] } },
{ "type": "Feature", "properties": { "ISO2": "BR", "NAME": "Brazil", "LON": -53.000000, "LAT": -10.000000 }, "geometry": { "type": "Point", "coordinates": [ -53.101409304573885, -10.803237840507784 ] } },
{ "type": "Feature", "properties": { "ISO2": "BG", "NAME": "Bulgaria", "LON": 25.000000, "LAT": 42.000000 }, "geometry": { "type": "Point", "coordinates": [ 25.250545574079514, 42.740132215070581 ] } },
{ "type": "Feature", "properties": { "ISO2": "BN", "NAME": "Brunei Darussalam", "LON": 114.000000, "LAT": 4.000000 }, "geometry": { "type": "Point", "coordinates": [ 114.668699811568231, 4.52876143462238 ] } },
{ "type": "Feature", "properties": { "ISO2": "CA", "NAME": "Canada", "LON": -109.000000, "LAT": 59.000000 }, "geometry": { "type": "Point", "coordinates": [ -98.450039859057426, 61.225369107627742 ] } },
{ "type": "Feature", "properties": { "ISO2": "KH", "NAME": "Cambodia", "LON": 104.000000, "LAT": 12.000000 }, "geometry": { "type": "Point", "coordinates": [ 104.941540548559004, 12.724685840913095 ] } },
{ "type": "Feature", "properties": { "ISO2": "LK", "NAME": "Sri Lanka", "LON": 80.000000, "LAT": 7.000000 }, "geometry": { "type": "Point", "coordinates": [ 80.678178377552541, 7.650325121152716 ] } },
{ "type": "Feature", "properties": { "ISO2": "CG", "NAME": "Congo", "LON": 15.000000, "LAT": -0.000000 }, "geometry": { "type": "Point", "coordinates": [ 15.218361554232338, -0.873265869344321 ] } },
{ "type": "Feature", "properties": { "ISO2": "CD", "NAME": "Democratic Republic of the Congo", "LON": 23.000000, "LAT": -2.000000 }, "geometry": { "type": "Point", "coordinates": [ 23.646398961766646, -2.871058059893151 ] } },
{ "type": "Feature", "properties": { "ISO2": "BI", "NAME": "Burundi", "LON": 29.000000, "LAT": -3.000000 }, "geometry": { "type": "Point", "coordinates": [ 29.901786281658886, -3.346160588997873 ] } },
{ "type": "Feature", "properties": { "ISO2": "CN", "NAME": "China", "LON": 106.000000, "LAT": 33.000000 }, "geometry": { "type": "Point", "coordinates": [ 103.811477631279672, 36.569589299275918 ] } },
{ "type": "Feature", "properties": { "ISO2": "AF", "NAME": "Afghanistan", "LON": 65.000000, "LAT": 33.000000 }, "geometry": { "type": "Point", "coordinates": [ 66.001111195527344, 33.858776158276591 ] } },
{ "type": "Feature", "properties": { "ISO2": "BT", "NAME": "Bhutan", "LON": 90.000000, "LAT": 27.000000 }, "geometry": { "type": "Point", "coordinates": [ 90.464827703449785, 27.406580293350963 ] } },
{ "type": "Feature", "properties": { "ISO2": "CL", "NAME": "Chile", "LON": -69.000000, "LAT": -23.000000 }, "geometry": { "type": "Point", "coordinates": [ -71.252768660067389, -37.001684651939364 ] } },
{ "type": "Feature", "properties": { "ISO2": "KY", "NAME": "Cayman Islands", "LON": -81.000000, "LAT": 19.000000 }, "geometry": { "type": "Point", "coordinates": [ -80.874397952335656, 19.427989594486856 ] } },
{ "type": "Feature", "properties": { "ISO2": "CM", "NAME": "Cameroon", "LON": 12.000000, "LAT": 5.000000 }, "geometry": { "type": "Point", "coordinates": [ 12.734691576125861, 5.637871620046408 ] } },
{ "type": "Feature", "properties": { "ISO2": "TD", "NAME": "Chad", "LON": 18.000000, "LAT": 15.000000 }, "geometry": { "type": "Point", "coordinates": [ 18.683041327638819, 15.318384474036888 ] } },
{ "type": "Feature", "properties": { "ISO2": "KM", "NAME": "Comoros", "LON": 43.000000, "LAT": -11.000000 }, "geometry": { "type": "Point", "coordinates": [ 43.794473742051245, -11.961116468802642 ] } },
{ "type": "Feature", "properties": { "ISO2": "CO", "NAME": "Colombia", "LON": -73.000000, "LAT": 3.000000 }, "geometry": { "type": "Point", "coordinates": [ -73.054034154850982, 3.885744012761621 ] } },
{ "type": "Feature", "properties": { "ISO2": "CR", "NAME": "Costa Rica", "LON": -83.000000, "LAT": 9.000000 }, "geometry": { "type": "Point", "coordinates": [ -84.097384398263912, 9.905458957593444 ] } },
{ "type": "Feature", "properties": { "ISO2": "CF", "NAME": "Central African Republic", "LON": 20.000000, "LAT": 6.000000 }, "geometry": { "type": "Point", "coordinates": [ 20.471091514446815, 6.56319950602365 ] } },
{ "type": "Feature", "properties": { "ISO2": "CU", "NAME": "Cuba", "LON": -77.000000, "LAT": 21.000000 }, "geometry": { "type": "Point", "coordinates": [ -78.961429291269752, 21.601653725815282 ] } },
{ "type": "Feature", "properties": { "ISO2": "CV", "NAME": "Cape Verde", "LON": -23.000000, "LAT": 15.000000 }, "geometry": { "type": "Point", "coordinates": [ -24.154355250261471, 16.041786890117638 ] } },
{ "type": "Feature", "properties": { "ISO2": "CK", "NAME": "Cook Islands", "LON": -159.000000, "LAT": -21.000000 }, "geometry": { "type": "Point", "coordinates": [ -159.095372515349368, -18.831338061077936 ] } },
{ "type": "Feature", "properties": { "ISO2": "CY", "NAME": "Cyprus", "LON": 33.000000, "LAT": 35.000000 }, "geometry": { "type": "Point", "coordinates": [ 33.331710698201391, 35.029615424100093 ] } },
{ "type": "Feature", "properties": { "ISO2": "DK", "NAME": "Denmark", "LON": 9.000000, "LAT": 56.000000 }, "geometry": { "type": "Point", "coordinates": [ 9.933947218210069, 55.995264992200802 ] } },
{ "type": "Feature", "properties": { "ISO2": "DJ", "NAME": "Djibouti", "LON": 42.000000, "LAT": 11.000000 }, "geometry": { "type": "Point", "coordinates": [ 42.563496522141079, 11.757116579903723 ] } },
{ "type": "Feature", "properties": { "ISO2": "DM", "NAME": "Dominica", "LON": -61.000000, "LAT": 15.000000 }, "geometry": { "type": "Point", "coordinates": [ -61.356392, 15.430462 ] } },
{ "type": "Feature", "properties": { "ISO2": "DO", "NAME": "Dominican Republic", "LON": -70.000000, "LAT": 19.000000 }, "geometry": { "type": "Point", "coordinates": [ -70.504580792872801, 18.893175612577501 ] } },
{ "type": "Feature", "properties": { "ISO2": "EC", "NAME": "Ecuador", "LON": -78.000000, "LAT": -1.000000 }, "geometry": { "type": "Point", "coordinates": [ -78.630320870207967, -1.433181662978076 ] } },
{ "type": "Feature", "properties": { "ISO2": "EG", "NAME": "Egypt", "LON": 29.000000, "LAT": 26.000000 }, "geometry": { "type": "Point", "coordinates": [ 29.893087971808061, 26.4957360379262 ] } },
{ "type": "Feature", "properties": { "ISO2": "IE", "NAME": "Ireland", "LON": -8.000000, "LAT": 53.000000 }, "geometry": { "type": "Point", "coordinates": [ -8.085667790282701, 53.211679128069846 ] } },
{ "type": "Feature", "properties": { "ISO2": "GQ", "NAME": "Equatorial Guinea", "LON": 10.000000, "LAT": 1.000000 }, "geometry": { "type": "Point", "coordinates": [ 10.361908851854876, 1.665339803298234 ] } },
{ "type": "Feature", "properties": { "ISO2": "EE", "NAME": "Estonia", "LON": 25.000000, "LAT": 58.000000 }, "geometry": { "type": "Point", "coordinates": [ 25.662769175656919, 58.661664478600841 ] } },
{ "type": "Feature", "properties": { "ISO2": "ER", "NAME": "Eritrea", "LON": 38.000000, "LAT": 16.000000 }, "geometry": { "type": "Point", "coordinates": [ 38.933716556456254, 15.318835179499432 ] } },
{ "type": "Feature", "properties": { "ISO2": "SV", "NAME": "El Salvador", "LON": -88.000000, "LAT": 13.000000 }, "geometry": { "type": "Point", "coordinates": [ -88.851749728834747, 13.713582398232637 ] } },
{ "type": "Feature", "properties": { "ISO2": "ET", "NAME": "Ethiopia", "LON": 39.000000, "LAT": 8.000000 }, "geometry": { "type": "Point", "coordinates": [ 39.630840748452854, 8.610914312082652 ] } },
{ "type": "Feature", "properties": { "ISO2": "AT", "NAME": "Austria", "LON": 14.000000, "LAT": 47.000000 }, "geometry": { "type": "Point", "coordinates": [ 14.191526637303852, 47.602559929950523 ] } },
{ "type": "Feature", "properties": { "ISO2": "CZ", "NAME": "Czech Republic", "LON": 15.000000, "LAT": 49.000000 }, "geometry": { "type": "Point", "coordinates": [ 15.287049529348515, 49.761348789781195 ] } },
{ "type": "Feature", "properties": { "ISO2": "GF", "NAME": "French Guiana", "LON": -53.000000, "LAT": 3.000000 }, "geometry": { "type": "Point", "coordinates": [ -53.246533987802934, 3.890030903145193 ] } },
{ "type": "Feature", "properties": { "ISO2": "FI", "NAME": "Finland", "LON": 26.000000, "LAT": 64.000000 }, "geometry": { "type": "Point", "coordinates": [ 26.240737848297091, 64.518461095501863 ] } },
{ "type": "Feature", "properties": { "ISO2": "FJ", "NAME": "Fiji", "LON": 177.000000, "LAT": -17.000000 }, "geometry": { "type": "Point", "coordinates": [ 166.843825948611482, -17.417251342163553 ] } },
{ "type": "Feature", "properties": { "ISO2": "FK", "NAME": "Falkland Islands (Malvinas)", "LON": -58.000000, "LAT": -51.000000 }, "geometry": { "type": "Point", "coordinates": [ -59.411125310214942, -51.734717556671107 ] } },
{ "type": "Feature", "properties": { "ISO2": "FM", "NAME": "Micronesia, Federated States of", "LON": 158.000000, "LAT": 6.000000 }, "geometry": { "type": "Point", "coordinates": [ 153.455054309497655, 7.268708179563336 ] } },
{ "type": "Feature", "properties": { "ISO2": "PF", "NAME": "French Polynesia", "LON": -149.000000, "LAT": -17.000000 }, "geometry": { "type": "Point", "coordinates": [ -145.430899384073939, -15.031745306910363 ] } },
{ "type": "Feature", "properties": { "ISO2": "FR", "NAME": "France", "LON": 2.000000, "LAT": 46.000000 }, "geometry": { "type": "Point", "coordinates": [ 2.550860905155678, 46.586200516652319 ] } },
{ "type": "Feature", "properties": { "ISO2": "GM", "NAME": "Gambia", "LON": -15.000000, "LAT": 13.000000 }, "geometry": { "type": "Point", "coordinates": [ -15.490288714986903, 13.466328926631723 ] } },
{ "type": "Feature", "properties": { "ISO2": "GA", "NAME": "Gabon", "LON": 11.000000, "LAT": -0.000000 }, "geometry": { "type": "Point", "coordinates": [ 11.810185847003327, -0.614838185882295 ] } },
{ "type": "Feature", "properties": { "ISO2": "GE", "NAME": "Georgia", "LON": 43.000000, "LAT": 42.000000 }, "geometry": { "type": "Point", "coordinates": [ 43.4916719463139, 42.204285589390601 ] } },
{ "type": "Feature", "properties": { "ISO2": "GH", "NAME": "Ghana", "LON": -1.000000, "LAT": 7.000000 }, "geometry": { "type": "Point", "coordinates": [ -1.179135676927483, 7.925560732376664 ] } },
{ "type": "Feature", "properties": { "ISO2": "GD", "NAME": "Grenada", "LON": -61.000000, "LAT": 12.000000 }, "geometry": { "type": "Point", "coordinates": [ -61.620026679436123, 12.170663943107618 ] } },
{ "type": "Feature", "properties": { "ISO2": "GL", "NAME": "Greenland", "LON": -41.000000, "LAT": 74.000000 }, "geometry": { "type": "Point", "coordinates": [ -41.422953206816864, 74.725556616770064 ] } },
{ "type": "Feature", "properties": { "ISO2": "DE", "NAME": "Germany", "LON": 9.000000, "LAT": 51.000000 }, "geometry": { "type": "Point", "coordinates": [ 10.364249045851004, 51.112522975956459 ] } },
{ "type": "Feature", "properties": { "ISO2": "GU", "NAME": "Guam", "LON": 144.000000, "LAT": 13.000000 }, "geometry": { "type": "Point", "coordinates": [ 144.746633, 13.43879433333335 ] } },
{ "type": "Feature", "properties": { "ISO2": "GR", "NAME": "Greece", "LON": 21.000000, "LAT": 39.000000 }, "geometry": { "type": "Point", "coordinates": [ 22.858485757553915, 39.13809589012341 ] } },
{ "type": "Feature", "properties": { "ISO2": "GT", "NAME": "Guatemala", "LON": -90.000000, "LAT": 15.000000 }, "geometry": { "type": "Point", "coordinates": [ -90.343364261172113, 15.702474169284285 ] } },
{ "type": "Feature", "properties": { "ISO2": "GN", "NAME": "Guinea", "LON": -10.000000, "LAT": 10.000000 }, "geometry": { "type": "Point", "coordinates": [ -10.899682456051957, 10.428414882375506 ] } },
{ "type": "Feature", "properties": { "ISO2": "GY", "NAME": "Guyana", "LON": -58.000000, "LAT": 4.000000 }, "geometry": { "type": "Point", "coordinates": [ -58.970257880218902, 4.745794108931534 ] } },
{ "type": "Feature", "properties": { "ISO2": "HT", "NAME": "Haiti", "LON": -72.000000, "LAT": 19.000000 }, "geometry": { "type": "Point", "coordinates": [ -72.704019462816333, 18.874681436145575 ] } },
{ "type": "Feature", "properties": { "ISO2": "HN", "NAME": "Honduras", "LON": -86.000000, "LAT": 14.000000 }, "geometry": { "type": "Point", "coordinates": [ -86.652843592771845, 14.840209988419586 ] } },
{ "type": "Feature", "properties": { "ISO2": "HR", "NAME": "Croatia", "LON": 16.000000, "LAT": 45.000000 }, "geometry": { "type": "Point", "coordinates": [ 16.442661379296265, 45.140794387097422 ] } },
{ "type": "Feature", "properties": { "ISO2": "HU", "NAME": "Hungary", "LON": 19.000000, "LAT": 47.000000 }, "geometry": { "type": "Point", "coordinates": [ 19.425884747880794, 47.169246733817381 ] } },
{ "type": "Feature", "properties": { "ISO2": "IS", "NAME": "Iceland", "LON": -18.000000, "LAT": 64.000000 }, "geometry": { "type": "Point", "coordinates": [ -18.594206430754692, 65.003534131617641 ] } },
{ "type": "Feature", "properties": { "ISO2": "IN", "NAME": "India", "LON": 78.000000, "LAT": 21.000000 }, "geometry": { "type": "Point", "coordinates": [ 79.631599815578468, 22.894337133217316 ] } },
{ "type": "Feature", "properties": { "ISO2": "IR", "NAME": "Iran (Islamic Republic of)", "LON": 54.000000, "LAT": 32.000000 }, "geometry": { "type": "Point", "coordinates": [ 54.284732139151217, 32.576513526034731 ] } },
{ "type": "Feature", "properties": { "ISO2": "IL", "NAME": "Israel", "LON": 34.000000, "LAT": 31.000000 }, "geometry": { "type": "Point", "coordinates": [ 34.964351843026861, 31.423444050348021 ] } },
{ "type": "Feature", "properties": { "ISO2": "IT", "NAME": "Italy", "LON": 12.000000, "LAT": 42.000000 }, "geometry": { "type": "Point", "coordinates": [ 12.077385176294216, 42.840446873070526 ] } },
{ "type": "Feature", "properties": { "ISO2": "CI", "NAME": "Cote d'Ivoire", "LON": -5.000000, "LAT": 7.000000 }, "geometry": { "type": "Point", "coordinates": [ -5.54380467238432, 7.593751299435081 ] } },
{ "type": "Feature", "properties": { "ISO2": "IQ", "NAME": "Iraq", "LON": 43.000000, "LAT": 33.000000 }, "geometry": { "type": "Point", "coordinates": [ 43.759794454701101, 33.076968597402178 ] } },
{ "type": "Feature", "properties": { "ISO2": "JP", "NAME": "Japan", "LON": 139.000000, "LAT": 36.000000 }, "geometry": { "type": "Point", "coordinates": [ 137.992659135578691, 37.532143448040728 ] } },
{ "type": "Feature", "properties": { "ISO2": "JM", "NAME": "Jamaica", "LON": -77.000000, "LAT": 18.000000 }, "geometry": { "type": "Point", "coordinates": [ -77.311358425682585, 18.125184831562308 ] } },
{ "type": "Feature", "properties": { "ISO2": "JO", "NAME": "Jordan", "LON": 36.000000, "LAT": 30.000000 }, "geometry": { "type": "Point", "coordinates": [ 36.770554625955953, 31.2408264017124 ] } },
{ "type": "Feature", "properties": { "ISO2": "KE", "NAME": "Kenya", "LON": 37.000000, "LAT": 0.000000 }, "geometry": { "type": "Point", "coordinates": [ 37.824698508926325, 0.538311825503038 ] } },
{ "type": "Feature", "properties": { "ISO2": "KG", "NAME": "Kyrgyzstan", "LON": 74.000000, "LAT": 41.000000 }, "geometry": { "type": "Point", "coordinates": [ 74.583467489469655, 41.448207123146418 ] } },
{ "type": "Feature", "properties": { "ISO2": "KP", "NAME": "Korea, Democratic People's Republic of", "LON": 126.000000, "LAT": 39.000000 }, "geometry": { "type": "Point", "coordinates": [ 127.219714574661964, 40.168345835570918 ] } },
{ "type": "Feature", "properties": { "ISO2": "KI", "NAME": "Kiribati", "LON": 175.000000, "LAT": -1.000000 }, "geometry": { "type": "Point", "coordinates": [ -36.885870614857382, 0.982193016142276 ] } },
{ "type": "Feature", "properties": { "ISO2": "KR", "NAME": "Korea, Republic of", "LON": 128.000000, "LAT": 36.000000 }, "geometry": { "type": "Point", "coordinates": [ 127.871214052554436, 36.420721375133475 ] } },
{ "type": "Feature", "properties": { "ISO2": "KW", "NAME": "Kuwait", "LON": 47.000000, "LAT": 29.000000 }, "geometry": { "type": "Point", "coordinates": [ 47.573138784398232, 29.327867874705973 ] } },
{ "type": "Feature", "properties": { "ISO2": "KZ", "NAME": "Kazakhstan", "LON": 67.000000, "LAT": 48.000000 }, "geometry": { "type": "Point", "coordinates": [ 67.26502487404538, 48.146637601194705 ] } },
{ "type": "Feature", "properties": { "ISO2": "LA", "NAME": "Lao People's Democratic Republic", "LON": 102.000000, "LAT": 19.000000 }, "geometry": { "type": "Point", "coordinates": [ 103.749793106529125, 18.512943112717554 ] } },
{ "type": "Feature", "properties": { "ISO2": "LB", "NAME": "Lebanon", "LON": 35.000000, "LAT": 33.000000 }, "geometry": { "type": "Point", "coordinates": [ 35.92644505231069, 33.953103759435166 ] } },
{ "type": "Feature", "properties": { "ISO2": "LV", "NAME": "Latvia", "LON": 25.000000, "LAT": 56.000000 }, "geometry": { "type": "Point", "coordinates": [ 24.836722901148189, 56.867828219944329 ] } },
{ "type": "Feature", "properties": { "ISO2": "BY", "NAME": "Belarus", "LON": 28.000000, "LAT": 53.000000 }, "geometry": { "type": "Point", "coordinates": [ 28.036360986632854, 53.539591617190084 ] } },
{ "type": "Feature", "properties": { "ISO2": "LT", "NAME": "Lithuania", "LON": 23.000000, "LAT": 55.000000 }, "geometry": { "type": "Point", "coordinates": [ 23.89202140143502, 55.326497810920614 ] } },
{ "type": "Feature", "properties": { "ISO2": "LR", "NAME": "Liberia", "LON": -9.000000, "LAT": 6.000000 }, "geometry": { "type": "Point", "coordinates": [ -9.338043743411202, 6.453021081981533 ] } },
{ "type": "Feature", "properties": { "ISO2": "SK", "NAME": "Slovakia", "LON": 19.000000, "LAT": 48.000000 }, "geometry": { "type": "Point", "coordinates": [ 19.523504984987436, 48.72049672023244 ] } },
{ "type": "Feature", "properties": { "ISO2": "LI", "NAME": "Liechtenstein", "LON": 9.000000, "LAT": 47.000000 }, "geometry": { "type": "Point", "coordinates": [ 9.535613666666697, 47.131945333333348 ] } },
{ "type": "Feature", "properties": { "ISO2": "LY", "NAME": "Libyan Arab Jamahiriya", "LON": 18.000000, "LAT": 27.000000 }, "geometry": { "type": "Point", "coordinates": [ 18.025946424796263, 27.025637766779685 ] } },
{ "type": "Feature", "properties": { "ISO2": "MG", "NAME": "Madagascar", "LON": 46.000000, "LAT": -19.000000 }, "geometry": { "type": "Point", "coordinates": [ 46.686012405264655, -19.362974037954885 ] } },
{ "type": "Feature", "properties": { "ISO2": "MQ", "NAME": "Martinique", "LON": -61.000000, "LAT": 14.000000 }, "geometry": { "type": "Point", "coordinates": [ -60.992134, 14.673518 ] } },
{ "type": "Feature", "properties": { "ISO2": "MN", "NAME": "Mongolia", "LON": 102.000000, "LAT": 46.000000 }, "geometry": { "type": "Point", "coordinates": [ 103.081007279672576, 46.841308843637421 ] } },
{ "type": "Feature", "properties": { "ISO2": "MS", "NAME": "Montserrat", "LON": -62.000000, "LAT": 16.000000 }, "geometry": { "type": "Point", "coordinates": [ -62.203338333333285, 16.732312666666676 ] } },
{ "type": "Feature", "properties": { "ISO2": "MK", "NAME": "The former Yugoslav Republic of Macedonia", "LON": 21.000000, "LAT": 41.000000 }, "geometry": { "type": "Point", "coordinates": [ 21.713406062166918, 41.58589334897426 ] } },
{ "type": "Feature", "properties": { "ISO2": "ML", "NAME": "Mali", "LON": -3.000000, "LAT": 17.000000 }, "geometry": { "type": "Point", "coordinates": [ -3.526269244471663, 17.358853061716371 ] } },
{ "type": "Feature", "properties": { "ISO2": "MA", "NAME": "Morocco", "LON": -5.000000, "LAT": 32.000000 }, "geometry": { "type": "Point", "coordinates": [ -6.268992632180201, 31.920551112432914 ] } },
{ "type": "Feature", "properties": { "ISO2": "MU", "NAME": "Mauritius", "LON": 57.000000, "LAT": -20.000000 }, "geometry": { "type": "Point", "coordinates": [ 57.820624577052172, -20.174951190536749 ] } },
{ "type": "Feature", "properties": { "ISO2": "MR", "NAME": "Mauritania", "LON": -10.000000, "LAT": 20.000000 }, "geometry": { "type": "Point", "coordinates": [ -10.347058190937307, 20.248398715236743 ] } },
{ "type": "Feature", "properties": { "ISO2": "MT", "NAME": "Malta", "LON": 14.000000, "LAT": 35.000000 }, "geometry": { "type": "Point", "coordinates": [ 14.390640760273673, 35.911847330040828 ] } },
{ "type": "Feature", "properties": { "ISO2": "OM", "NAME": "Oman", "LON": 57.000000, "LAT": 21.000000 }, "geometry": { "type": "Point", "coordinates": [ 56.099386368151293, 20.580003723673155 ] } },
{ "type": "Feature", "properties": { "ISO2": "MV", "NAME": "Maldives", "LON": 72.000000, "LAT": 3.000000 }, "geometry": { "type": "Point", "coordinates": [ 73.258170976761789, 3.362065716703419 ] } },
{ "type": "Feature", "properties": { "ISO2": "MX", "NAME": "Mexico", "LON": -102.000000, "LAT": 23.000000 }, "geometry": { "type": "Point", "coordinates": [ -102.518321423276802, 23.94912440663208 ] } },
{ "type": "Feature", "properties": { "ISO2": "MY", "NAME": "Malaysia", "LON": 102.000000, "LAT": 4.000000 }, "geometry": { "type": "Point", "coordinates": [ 109.735449869987121, 3.766230386412011 ] } },
{ "type": "Feature", "properties": { "ISO2": "MZ", "NAME": "Mozambique", "LON": 37.000000, "LAT": -14.000000 }, "geometry": { "type": "Point", "coordinates": [ 35.562686310047219, -17.249339564669732 ] } },
{ "type": "Feature", "properties": { "ISO2": "MW", "NAME": "Malawi", "LON": 33.000000, "LAT": -13.000000 }, "geometry": { "type": "Point", "coordinates": [ 34.269042764052287, -13.190967304043799 ] } },
{ "type": "Feature", "properties": { "ISO2": "NC", "NAME": "New Caledonia", "LON": 165.000000, "LAT": -21.000000 }, "geometry": { "type": "Point", "coordinates": [ 165.683810955622249, -21.382095979326916 ] } },
{ "type": "Feature", "properties": { "ISO2": "NU", "NAME": "Niue", "LON": -169.000000, "LAT": -19.000000 }, "geometry": { "type": "Point", "coordinates": [ -169.881022, -19.043517666666673 ] } },
{ "type": "Feature", "properties": { "ISO2": "NE", "NAME": "Niger", "LON": 9.000000, "LAT": 17.000000 }, "geometry": { "type": "Point", "coordinates": [ 9.426031978972643, 17.409083067935619 ] } },
{ "type": "Feature", "properties": { "ISO2": "AW", "NAME": "Aruba", "LON": -69.000000, "LAT": 12.000000 }, "geometry": { "type": "Point", "coordinates": [ -70.001582, 12.525925333333333 ] } },
{ "type": "Feature", "properties": { "ISO2": "AI", "NAME": "Anguilla", "LON": -63.000000, "LAT": 18.000000 }, "geometry": { "type": "Point", "coordinates": [ -63.043612, 18.221294666666662 ] } },
{ "type": "Feature", "properties": { "ISO2": "BE", "NAME": "Belgium", "LON": 4.000000, "LAT": 50.000000 }, "geometry": { "type": "Point", "coordinates": [ 4.733150873630163, 50.666488854347577 ] } },
{ "type": "Feature", "properties": { "ISO2": "HK", "NAME": "Hong Kong", "LON": 114.000000, "LAT": 22.000000 }, "geometry": { "type": "Point", "coordinates": [ 114.124822468033798, 22.38437308349037 ] } },
{ "type": "Feature", "properties": { "ISO2": "MP", "NAME": "Northern Mariana Islands", "LON": 145.000000, "LAT": 15.000000 }, "geometry": { "type": "Point", "coordinates": [ 145.574191429800265, 16.195748893629563 ] } },
{ "type": "Feature", "properties": { "ISO2": "FO", "NAME": "Faroe Islands", "LON": -6.000000, "LAT": 62.000000 }, "geometry": { "type": "Point", "coordinates": [ -6.864174585581503, 62.024020931175762 ] } },
{ "type": "Feature", "properties": { "ISO2": "AD", "NAME": "Andorra", "LON": 1.000000, "LAT": 42.000000 }, "geometry": { "type": "Point", "coordinates": [ 1.650388, 42.560448 ] } },
{ "type": "Feature", "properties": { "ISO2": "GI", "NAME": "Gibraltar", "LON": -5.000000, "LAT": 36.000000 }, "geometry": { "type": "Point", "coordinates": [ -5.342845666666658, 36.146014 ] } },
{ "type": "Feature", "properties": { "ISO2": "IM", "NAME": "Isle of Man", "LON": -4.000000, "LAT": 54.000000 }, "geometry": { "type": "Point", "coordinates": [ -4.508796666666655, 54.217588 ] } },
{ "type": "Feature", "properties": { "ISO2": "LU", "NAME": "Luxembourg", "LON": 6.000000, "LAT": 49.000000 }, "geometry": { "type": "Point", "coordinates": [ 6.159432626848933, 49.768679912915189 ] } },
{ "type": "Feature", "properties": { "ISO2": "MO", "NAME": "Macau", "LON": 113.000000, "LAT": 22.000000 }, "geometry": { "type": "Point", "coordinates": [ 113.546185666666688, 22.196839333333426 ] } },
{ "type": "Feature", "properties": { "ISO2": "MC", "NAME": "Monaco", "LON": 7.000000, "LAT": 43.000000 }, "geometry": { "type": "Point", "coordinates": [ 7.409817418344699, 43.750861232106921 ] } },
{ "type": "Feature", "properties": { "ISO2": "PS", "NAME": "Palestine", "LON": 35.000000, "LAT": 32.000000 }, "geometry": { "type": "Point", "coordinates": [ 35.219723082120517, 31.864745450866138 ] } },
{ "type": "Feature", "properties": { "ISO2": "ME", "NAME": "Montenegro", "LON": 19.000000, "LAT": 42.000000 }, "geometry": { "type": "Point", "coordinates": [ 19.273101004602676, 42.766131118563678 ] } },
{ "type": "Feature", "properties": { "ISO2": "YT", "NAME": "Mayotte", "LON": 45.000000, "LAT": -12.000000 }, "geometry": { "type": "Point", "coordinates": [ 45.131590705535523, -12.830911768737675 ] } },
{ "type": "Feature", "properties": { "ISO2": "AX", "NAME": "ï¿½land Islands", "LON": 19.000000, "LAT": 60.000000 }, "geometry": { "type": "Point", "coordinates": [ 19.973563992973975, 60.201294853037432 ] } },
{ "type": "Feature", "properties": { "ISO2": "NF", "NAME": "Norfolk Island", "LON": 167.000000, "LAT": -29.000000 }, "geometry": { "type": "Point", "coordinates": [ 167.958394666666663, -29.037131333333306 ] } },
{ "type": "Feature", "properties": { "ISO2": "CC", "NAME": "Cocos (Keeling) Islands", "LON": 96.000000, "LAT": -12.000000 }, "geometry": { "type": "Point", "coordinates": [ 96.850357562390187, -12.170519952926178 ] } },
{ "type": "Feature", "properties": { "ISO2": "AQ", "NAME": "Antarctica", "LON": 21.000000, "LAT": -80.000000 }, "geometry": { "type": "Point", "coordinates": [ 21.595277876480576, -80.463539131084076 ] } },
{ "type": "Feature", "properties": { "ISO2": "BV", "NAME": "Bouvet Island", "LON": 3.000000, "LAT": -54.000000 }, "geometry": { "type": "Point", "coordinates": [ 3.403981333333386, -54.42158 ] } },
{ "type": "Feature", "properties": { "ISO2": "TF", "NAME": "French Southern and Antarctic Lands", "LON": 69.000000, "LAT": -49.000000 }, "geometry": { "type": "Point", "coordinates": [ 68.976460365326872, -49.166552190025776 ] } },
{ "type": "Feature", "properties": { "ISO2": "HM", "NAME": "Heard Island and McDonald Islands", "LON": 73.000000, "LAT": -53.000000 }, "geometry": { "type": "Point", "coordinates": [ 73.494252666666654, -53.102328 ] } },
{ "type": "Feature", "properties": { "ISO2": "IO", "NAME": "British Indian Ocean Territory", "LON": 72.000000, "LAT": -7.000000 }, "geometry": { "type": "Point", "coordinates": [ 72.363983979133764, -7.179896845718031 ] } },
{ "type": "Feature", "properties": { "ISO2": "CX", "NAME": "Christmas Island", "LON": 105.000000, "LAT": -10.000000 }, "geometry": { "type": "Point", "coordinates": [ 105.689000666666701, -10.44412 ] } },
{ "type": "Feature", "properties": { "ISO2": "UM", "NAME": "United States Minor Outlying Islands", "LON": -160.000000, "LAT": -0.000000 }, "geometry": { "type": "Point", "coordinates": [ -48.65795640891362, 16.247566554780608 ] } },
{ "type": "Feature", "properties": { "ISO2": "VU", "NAME": "Vanuatu", "LON": 166.000000, "LAT": -15.000000 }, "geometry": { "type": "Point", "coordinates": [ 167.585172437558384, -16.10445213700476 ] } },
{ "type": "Feature", "properties": { "ISO2": "NG", "NAME": "Nigeria", "LON": 8.000000, "LAT": 9.000000 }, "geometry": { "type": "Point", "coordinates": [ 8.115104062880269, 9.58811547549946 ] } },
{ "type": "Feature", "properties": { "ISO2": "NL", "NAME": "Netherlands", "LON": 5.000000, "LAT": 52.000000 }, "geometry": { "type": "Point", "coordinates": [ 5.639291909251281, 52.25891879994262 ] } },
{ "type": "Feature", "properties": { "ISO2": "NO", "NAME": "Norway", "LON": 8.000000, "LAT": 61.000000 }, "geometry": { "type": "Point", "coordinates": [ 13.982010667449908, 64.279310163643643 ] } },
{ "type": "Feature", "properties": { "ISO2": "NP", "NAME": "Nepal", "LON": 83.000000, "LAT": 28.000000 }, "geometry": { "type": "Point", "coordinates": [ 83.933540228620842, 28.266562203579554 ] } },
{ "type": "Feature", "properties": { "ISO2": "NR", "NAME": "Nauru", "LON": 166.000000, "LAT": -0.000000 }, "geometry": { "type": "Point", "coordinates": [ 166.939422666666701, -0.517314666666645 ] } },
{ "type": "Feature", "properties": { "ISO2": "SR", "NAME": "Suriname", "LON": -55.000000, "LAT": 4.000000 }, "geometry": { "type": "Point", "coordinates": [ -55.904896786901659, 4.115480851752033 ] } },
{ "type": "Feature", "properties": { "ISO2": "NI", "NAME": "Nicaragua", "LON": -85.000000, "LAT": 12.000000 }, "geometry": { "type": "Point", "coordinates": [ -85.049844240631231, 12.822063424310699 ] } },
{ "type": "Feature", "properties": { "ISO2": "NZ", "NAME": "New Zealand", "LON": 172.000000, "LAT": -42.000000 }, "geometry": { "type": "Point", "coordinates": [ 172.219128590947065, -41.745968937280701 ] } },
{ "type": "Feature", "properties": { "ISO2": "PY", "NAME": "Paraguay", "LON": -58.000000, "LAT": -23.000000 }, "geometry": { "type": "Point", "coordinates": [ -58.386011505119953, -23.259387707699062 ] } },
{ "type": "Feature", "properties": { "ISO2": "PE", "NAME": "Peru", "LON": -75.000000, "LAT": -9.000000 }, "geometry": { "type": "Point", "coordinates": [ -74.360979229467702, -9.185526989435008 ] } },
{ "type": "Feature", "properties": { "ISO2": "PK", "NAME": "Pakistan", "LON": 69.000000, "LAT": 29.000000 }, "geometry": { "type": "Point", "coordinates": [ 69.398666266459756, 29.976437647380092 ] } },
{ "type": "Feature", "properties": { "ISO2": "PL", "NAME": "Poland", "LON": 19.000000, "LAT": 52.000000 }, "geometry": { "type": "Point", "coordinates": [ 19.373247568735266, 52.127498922996025 ] } },
{ "type": "Feature", "properties": { "ISO2": "PA", "NAME": "Panama", "LON": -80.000000, "LAT": 8.000000 }, "geometry": { "type": "Point", "coordinates": [ -80.066622015152618, 8.507978125522465 ] } },
{ "type": "Feature", "properties": { "ISO2": "PT", "NAME": "Portugal", "LON": -8.000000, "LAT": 40.000000 }, "geometry": { "type": "Point", "coordinates": [ -8.077508588514304, 39.654259139143655 ] } },
{ "type": "Feature", "properties": { "ISO2": "PG", "NAME": "Papua New Guinea", "LON": 143.000000, "LAT": -5.000000 }, "geometry": { "type": "Point", "coordinates": [ 145.101945885216196, -6.48176242768792 ] } },
{ "type": "Feature", "properties": { "ISO2": "GW", "NAME": "Guinea-Bissau", "LON": -14.000000, "LAT": 12.000000 }, "geometry": { "type": "Point", "coordinates": [ -14.941539071758484, 12.046717197613452 ] } },
{ "type": "Feature", "properties": { "ISO2": "QA", "NAME": "Qatar", "LON": 51.000000, "LAT": 25.000000 }, "geometry": { "type": "Point", "coordinates": [ 51.224900308514705, 25.316793479674839 ] } },
{ "type": "Feature", "properties": { "ISO2": "RE", "NAME": "Reunion", "LON": 55.000000, "LAT": -21.000000 }, "geometry": { "type": "Point", "coordinates": [ 55.53462733333334, -21.133242333333303 ] } },
{ "type": "Feature", "properties": { "ISO2": "RO", "NAME": "Romania", "LON": 24.000000, "LAT": 45.000000 }, "geometry": { "type": "Point", "coordinates": [ 24.975056730022899, 45.806202893927754 ] } },
{ "type": "Feature", "properties": { "ISO2": "MD", "NAME": "Republic of Moldova", "LON": 28.000000, "LAT": 47.000000 }, "geometry": { "type": "Point", "coordinates": [ 28.447516885970334, 47.2203163901358 ] } },
{ "type": "Feature", "properties": { "ISO2": "PH", "NAME": "Philippines", "LON": 122.000000, "LAT": 11.000000 }, "geometry": { "type": "Point", "coordinates": [ 122.920873456859752, 11.821778252614386 ] } },
{ "type": "Feature", "properties": { "ISO2": "PR", "NAME": "Puerto Rico", "LON": -66.000000, "LAT": 18.000000 }, "geometry": { "type": "Point", "coordinates": [ -66.655065864261175, 18.227571206381636 ] } },
{ "type": "Feature", "properties": { "ISO2": "RU", "NAME": "Russia", "LON": 96.000000, "LAT": 61.000000 }, "geometry": { "type": "Point", "coordinates": [ 96.789791330850377, 61.912438642422671 ] } },
{ "type": "Feature", "properties": { "ISO2": "RW", "NAME": "Rwanda", "LON": 29.000000, "LAT": -1.000000 }, "geometry": { "type": "Point", "coordinates": [ 29.89723707997215, -2.015984666807257 ] } },
{ "type": "Feature", "properties": { "ISO2": "SA", "NAME": "Saudi Arabia", "LON": 44.000000, "LAT": 24.000000 }, "geometry": { "type": "Point", "coordinates": [ 44.595163791782994, 24.035879789934349 ] } },
{ "type": "Feature", "properties": { "ISO2": "KN", "NAME": "Saint Kitts and Nevis", "LON": -62.000000, "LAT": 17.000000 }, "geometry": { "type": "Point", "coordinates": [ -62.691410881742542, 17.260448675915036 ] } },
{ "type": "Feature", "properties": { "ISO2": "SC", "NAME": "Seychelles", "LON": 55.000000, "LAT": -4.000000 }, "geometry": { "type": "Point", "coordinates": [ 51.214145628198686, -6.906442837815589 ] } },
{ "type": "Feature", "properties": { "ISO2": "ZA", "NAME": "South Africa", "LON": 23.000000, "LAT": -30.000000 }, "geometry": { "type": "Point", "coordinates": [ 25.12092409815423, -28.99493661109603 ] } },
{ "type": "Feature", "properties": { "ISO2": "LS", "NAME": "Lesotho", "LON": 28.000000, "LAT": -29.000000 }, "geometry": { "type": "Point", "coordinates": [ 28.248313015094304, -29.606358605239787 ] } },
{ "type": "Feature", "properties": { "ISO2": "BW", "NAME": "Botswana", "LON": 23.000000, "LAT": -22.000000 }, "geometry": { "type": "Point", "coordinates": [ 23.802852403418957, -22.182023071004 ] } },
{ "type": "Feature", "properties": { "ISO2": "SN", "NAME": "Senegal", "LON": -14.000000, "LAT": 15.000000 }, "geometry": { "type": "Point", "coordinates": [ -14.457497600380645, 14.36589942388998 ] } },
{ "type": "Feature", "properties": { "ISO2": "SI", "NAME": "Slovenia", "LON": 14.000000, "LAT": 46.000000 }, "geometry": { "type": "Point", "coordinates": [ 14.883059494646899, 46.143912731931366 ] } },
{ "type": "Feature", "properties": { "ISO2": "SL", "NAME": "Sierra Leone", "LON": -11.000000, "LAT": 8.000000 }, "geometry": { "type": "Point", "coordinates": [ -11.843636510413965, 8.597275960698369 ] } },
{ "type": "Feature", "properties": { "ISO2": "SG", "NAME": "Singapore", "LON": 103.000000, "LAT": 1.000000 }, "geometry": { "type": "Point", "coordinates": [ 103.781647, 1.376096666666655 ] } },
{ "type": "Feature", "properties": { "ISO2": "SO", "NAME": "Somalia", "LON": 48.000000, "LAT": 9.000000 }, "geometry": { "type": "Point", "coordinates": [ 45.855278591485678, 6.048906037811578 ] } },
{ "type": "Feature", "properties": { "ISO2": "ES", "NAME": "Spain", "LON": -3.000000, "LAT": 40.000000 }, "geometry": { "type": "Point", "coordinates": [ -3.602339941395329, 40.26889635537767 ] } },
{ "type": "Feature", "properties": { "ISO2": "LC", "NAME": "Saint Lucia", "LON": -60.000000, "LAT": 13.000000 }, "geometry": { "type": "Point", "coordinates": [ -60.988151666666624, 13.899629 ] } },
{ "type": "Feature", "properties": { "ISO2": "SD", "NAME": "Sudan", "LON": 30.000000, "LAT": 13.000000 }, "geometry": { "type": "Point", "coordinates": [ 30.06022975605017, 13.82960911701387 ] } },
{ "type": "Feature", "properties": { "ISO2": "SE", "NAME": "Sweden", "LON": 15.000000, "LAT": 62.000000 }, "geometry": { "type": "Point", "coordinates": [ 16.709590933942604, 62.823907609559264 ] } },
{ "type": "Feature", "properties": { "ISO2": "SY", "NAME": "Syrian Arab Republic", "LON": 38.000000, "LAT": 35.000000 }, "geometry": { "type": "Point", "coordinates": [ 38.449342951255808, 34.997562395749142 ] } },
{ "type": "Feature", "properties": { "ISO2": "CH", "NAME": "Switzerland", "LON": 7.000000, "LAT": 46.000000 }, "geometry": { "type": "Point", "coordinates": [ 8.224403733285429, 46.81265418918089 ] } },
{ "type": "Feature", "properties": { "ISO2": "TT", "NAME": "Trinidad and Tobago", "LON": -61.000000, "LAT": 10.000000 }, "geometry": { "type": "Point", "coordinates": [ -61.270885973299926, 10.455121293499646 ] } },
{ "type": "Feature", "properties": { "ISO2": "TH", "NAME": "Thailand", "LON": 100.000000, "LAT": 15.000000 }, "geometry": { "type": "Point", "coordinates": [ 101.047120390377685, 15.157260857055602 ] } },
{ "type": "Feature", "properties": { "ISO2": "TJ", "NAME": "Tajikistan", "LON": 69.000000, "LAT": 38.000000 }, "geometry": { "type": "Point", "coordinates": [ 71.071093004995561, 38.541257663525322 ] } },
{ "type": "Feature", "properties": { "ISO2": "TK", "NAME": "Tokelau", "LON": -171.000000, "LAT": -9.000000 }, "geometry": { "type": "Point", "coordinates": [ -171.839166010276699, -9.098552625624302 ] } },
{ "type": "Feature", "properties": { "ISO2": "TO", "NAME": "Tonga", "LON": -175.000000, "LAT": -21.000000 }, "geometry": { "type": "Point", "coordinates": [ -174.743216882178473, -19.809875484453649 ] } },
{ "type": "Feature", "properties": { "ISO2": "TG", "NAME": "Togo", "LON": 1.000000, "LAT": 8.000000 }, "geometry": { "type": "Point", "coordinates": [ 0.931766011364215, 8.618468300949813 ] } },
{ "type": "Feature", "properties": { "ISO2": "ST", "NAME": "Sao Tome and Principe", "LON": 6.000000, "LAT": 0.000000 }, "geometry": { "type": "Point", "coordinates": [ 6.705388973992315, 0.472920988866199 ] } },
{ "type": "Feature", "properties": { "ISO2": "TN", "NAME": "Tunisia", "LON": 9.000000, "LAT": 35.000000 }, "geometry": { "type": "Point", "coordinates": [ 9.548714046770035, 34.11118726556095 ] } },
{ "type": "Feature", "properties": { "ISO2": "TR", "NAME": "Turkey", "LON": 35.000000, "LAT": 39.000000 }, "geometry": { "type": "Point", "coordinates": [ 35.239908731747711, 39.038199573505686 ] } },
{ "type": "Feature", "properties": { "ISO2": "TV", "NAME": "Tuvalu", "LON": 179.000000, "LAT": -8.000000 }, "geometry": { "type": "Point", "coordinates": [ 178.173750474266768, -7.555771108653671 ] } },
{ "type": "Feature", "properties": { "ISO2": "TM", "NAME": "Turkmenistan", "LON": 59.000000, "LAT": 39.000000 }, "geometry": { "type": "Point", "coordinates": [ 59.412346974516296, 39.127085211024912 ] } },
{ "type": "Feature", "properties": { "ISO2": "TZ", "NAME": "United Republic of Tanzania", "LON": 34.000000, "LAT": -6.000000 }, "geometry": { "type": "Point", "coordinates": [ 34.79811382815749, -6.27085069882545 ] } },
{ "type": "Feature", "properties": { "ISO2": "UG", "NAME": "Uganda", "LON": 32.000000, "LAT": 1.000000 }, "geometry": { "type": "Point", "coordinates": [ 32.383906821659394, 1.290960045371949 ] } },
{ "type": "Feature", "properties": { "ISO2": "GB", "NAME": "United Kingdom", "LON": -1.000000, "LAT": 53.000000 }, "geometry": { "type": "Point", "coordinates": [ -2.844126636949559, 54.049161868741315 ] } },
{ "type": "Feature", "properties": { "ISO2": "UA", "NAME": "Ukraine", "LON": 31.000000, "LAT": 49.000000 }, "geometry": { "type": "Point", "coordinates": [ 31.384006246576291, 49.018043723097399 ] } },
{ "type": "Feature", "properties": { "ISO2": "US", "NAME": "United States", "LON": -98.000000, "LAT": 39.000000 }, "geometry": { "type": "Point", "coordinates": [ -112.414407176088758, 45.671235320936333 ] } },
{ "type": "Feature", "properties": { "ISO2": "BF", "NAME": "Burkina Faso", "LON": -1.000000, "LAT": 12.000000 }, "geometry": { "type": "Point", "coordinates": [ -1.759908467579859, 12.271678362437241 ] } },
{ "type": "Feature", "properties": { "ISO2": "UY", "NAME": "Uruguay", "LON": -56.000000, "LAT": -32.000000 }, "geometry": { "type": "Point", "coordinates": [ -55.999070674808848, -32.790599155428218 ] } },
{ "type": "Feature", "properties": { "ISO2": "UZ", "NAME": "Uzbekistan", "LON": 63.000000, "LAT": 41.000000 }, "geometry": { "type": "Point", "coordinates": [ 63.225664788714482, 41.73159774563792 ] } },
{ "type": "Feature", "properties": { "ISO2": "VC", "NAME": "Saint Vincent and the Grenadines", "LON": -61.000000, "LAT": 13.000000 }, "geometry": { "type": "Point", "coordinates": [ -61.221526208082054, 13.192709480327432 ] } },
{ "type": "Feature", "properties": { "ISO2": "VE", "NAME": "Venezuela", "LON": -66.000000, "LAT": 7.000000 }, "geometry": { "type": "Point", "coordinates": [ -66.176111031617495, 7.103026981386752 ] } },
{ "type": "Feature", "properties": { "ISO2": "VG", "NAME": "British Virgin Islands", "LON": -64.000000, "LAT": 18.000000 }, "geometry": { "type": "Point", "coordinates": [ -64.44408851597224, 18.541517346403737 ] } },
{ "type": "Feature", "properties": { "ISO2": "VN", "NAME": "Viet Nam", "LON": 105.000000, "LAT": 21.000000 }, "geometry": { "type": "Point", "coordinates": [ 106.30944790135797, 16.688505742283741 ] } },
{ "type": "Feature", "properties": { "ISO2": "VI", "NAME": "United States Virgin Islands", "LON": -64.000000, "LAT": 17.000000 }, "geometry": { "type": "Point", "coordinates": [ -64.772771952022381, 17.937828593221752 ] } },
{ "type": "Feature", "properties": { "ISO2": "NA", "NAME": "Namibia", "LON": 17.000000, "LAT": -22.000000 }, "geometry": { "type": "Point", "coordinates": [ 17.204869212920034, -22.14435902038586 ] } },
{ "type": "Feature", "properties": { "ISO2": "WF", "NAME": "Wallis and Futuna Islands", "LON": -178.000000, "LAT": -14.000000 }, "geometry": { "type": "Point", "coordinates": [ -177.333526562955456, -13.885290994427216 ] } },
{ "type": "Feature", "properties": { "ISO2": "WS", "NAME": "Samoa", "LON": -172.000000, "LAT": -13.000000 }, "geometry": { "type": "Point", "coordinates": [ -172.214942518307595, -13.703505411925274 ] } },
{ "type": "Feature", "properties": { "ISO2": "SZ", "NAME": "Swaziland", "LON": 31.000000, "LAT": -26.000000 }, "geometry": { "type": "Point", "coordinates": [ 31.507276535374864, -26.576980413201497 ] } },
{ "type": "Feature", "properties": { "ISO2": "YE", "NAME": "Yemen", "LON": 48.000000, "LAT": 15.000000 }, "geometry": { "type": "Point", "coordinates": [ 47.55351974301206, 15.805947888949683 ] } },
{ "type": "Feature", "properties": { "ISO2": "ZM", "NAME": "Zambia", "LON": 26.000000, "LAT": -14.000000 }, "geometry": { "type": "Point", "coordinates": [ 27.803161167868627, -13.44350924382686 ] } },
{ "type": "Feature", "properties": { "ISO2": "ZW", "NAME": "Zimbabwe", "LON": 29.000000, "LAT": -19.000000 }, "geometry": { "type": "Point", "coordinates": [ 29.877719166096092, -19.001585928977072 ] } },
{ "type": "Feature", "properties": { "ISO2": "ID", "NAME": "Indonesia", "LON": 114.000000, "LAT": -0.000000 }, "geometry": { "type": "Point", "coordinates": [ 117.211896856675637, -2.176954716313607 ] } },
{ "type": "Feature", "properties": { "ISO2": "GP", "NAME": "Guadeloupe", "LON": -61.000000, "LAT": 16.000000 }, "geometry": { "type": "Point", "coordinates": [ -61.600708435577381, 16.2112592475656 ] } },
{ "type": "Feature", "properties": { "ISO2": "AN", "NAME": "Netherlands Antilles", "LON": -68.000000, "LAT": 12.000000 }, "geometry": { "type": "Point", "coordinates": [ -68.116184771819192, 12.405880362859136 ] } },
{ "type": "Feature", "properties": { "ISO2": "AE", "NAME": "United Arab Emirates", "LON": 54.000000, "LAT": 23.000000 }, "geometry": { "type": "Point", "coordinates": [ 54.383988432401225, 23.925916985066003 ] } },
{ "type": "Feature", "properties": { "ISO2": "TL", "NAME": "Timor-Leste", "LON": 125.000000, "LAT": -8.000000 }, "geometry": { "type": "Point", "coordinates": [ 125.815191094812135, -8.853479634849839 ] } },
{ "type": "Feature", "properties": { "ISO2": "PN", "NAME": "Pitcairn Islands", "LON": -128.000000, "LAT": -24.000000 }, "geometry": { "type": "Point", "coordinates": [ -128.445971382273484, -24.516372516852361 ] } },
{ "type": "Feature", "properties": { "ISO2": "PW", "NAME": "Palau", "LON": 134.000000, "LAT": 7.000000 }, "geometry": { "type": "Point", "coordinates": [ 134.481214909148832, 7.395899333915352 ] } },
{ "type": "Feature", "properties": { "ISO2": "MH", "NAME": "Marshall Islands", "LON": 168.000000, "LAT": 7.000000 }, "geometry": { "type": "Point", "coordinates": [ 168.462500634096074, 8.614654105148134 ] } },
{ "type": "Feature", "properties": { "ISO2": "PM", "NAME": "Saint Pierre and Miquelon", "LON": -56.000000, "LAT": 47.000000 }, "geometry": { "type": "Point", "coordinates": [ -56.326863124813947, 46.946107677795723 ] } },
{ "type": "Feature", "properties": { "ISO2": "SH", "NAME": "Saint Helena", "LON": -5.000000, "LAT": -15.000000 }, "geometry": { "type": "Point", "coordinates": [ -9.996338429267517, -23.748817926979683 ] } },
{ "type": "Feature", "properties": { "ISO2": "SM", "NAME": "San Marino", "LON": 12.000000, "LAT": 43.000000 }, "geometry": { "type": "Point", "coordinates": [ 12.461654, 43.947001 ] } },
{ "type": "Feature", "properties": { "ISO2": "TC", "NAME": "Turks and Caicos Islands", "LON": -71.000000, "LAT": 21.000000 }, "geometry": { "type": "Point", "coordinates": [ -71.835740118884729, 21.80953002035692 ] } },
{ "type": "Feature", "properties": { "ISO2": "EH", "NAME": "Western Sahara", "LON": -13.000000, "LAT": 24.000000 }, "geometry": { "type": "Point", "coordinates": [ -13.127856864808741, 24.658872257052398 ] } },
{ "type": "Feature", "properties": { "ISO2": "RS", "NAME": "Serbia", "LON": 20.000000, "LAT": 44.000000 }, "geometry": { "type": "Point", "coordinates": [ 20.826811305284405, 43.992060507462455 ] } },
{ "type": "Feature", "properties": { "ISO2": "VA", "NAME": "Holy See (Vatican City)", "LON": 12.000000, "LAT": 41.000000 }, "geometry": { "type": "Point", "coordinates": [ 12.451134613807673, 41.904177526625119 ] } },
{ "type": "Feature", "properties": { "ISO2": "SJ", "NAME": "Svalbard", "LON": 18.000000, "LAT": 78.000000 }, "geometry": { "type": "Point", "coordinates": [ 18.405475607520486, 78.833480641464149 ] } },
{ "type": "Feature", "properties": { "ISO2": "MF", "NAME": "Saint Martin", "LON": -63.000000, "LAT": 18.000000 }, "geometry": { "type": "Point", "coordinates": [ -63.052655333333263, 18.068810666666657 ] } },
{ "type": "Feature", "properties": { "ISO2": "BL", "NAME": "Saint Barthelemy", "LON": -63.000000, "LAT": 18.000000 }, "geometry": { "type": "Point", "coordinates": [ -63.059878, 18.047143333333313 ] } },
{ "type": "Feature", "properties": { "ISO2": "GG", "NAME": "Guernsey", "LON": -2.000000, "LAT": 49.000000 }, "geometry": { "type": "Point", "coordinates": [ -2.587593, 49.454811 ] } },
{ "type": "Feature", "properties": { "ISO2": "JE", "NAME": "Jersey", "LON": -2.000000, "LAT": 49.000000 }, "geometry": { "type": "Point", "coordinates": [ -2.155833333333296, 49.216016333333343 ] } },
{ "type": "Feature", "properties": { "ISO2": "GS", "NAME": "South Georgia South Sandwich Islands", "LON": -36.000000, "LAT": -54.000000 }, "geometry": { "type": "Point", "coordinates": [ -36.318033729090537, -54.54878425249759 ] } },
{ "type": "Feature", "properties": { "ISO2": "TW", "NAME": "Taiwan", "LON": 120.000000, "LAT": 23.000000 }, "geometry": { "type": "Point", "coordinates": [ 120.938715088368838, 23.742997442742933 ] } }
]
}
